{
  "province": [
    {
      "provincia": [
        {
          "nome": "Agrigento",
          "sigla": "AG",
          "lat": "37.4137786",
          "lon": "13.4627163"
        },
        {
          "nome": "Alessandria",
          "sigla": "AL",
          "lat": "44.8351831",
          "lon": "8.6617986"
        },
        {
          "nome": "Ancona",
          "sigla": "AN",
          "lat": "43.4800336",
          "lon": "13.2022748"
        },
        {
          "nome": "Aosta",
          "sigla": "AO",
          "lat": "45.7438461",
          "lon": "7.3156776"
        },
        {
          "nome": "Arezzo",
          "sigla": "AR",
          "lat": "43.5171716",
          "lon": "11.8844412"
        },
        {
          "nome": "Ascoli Piceno",
          "sigla": "AP",
          "lat": "42.8834687",
          "lon": "13.551949"
        },
        {
          "nome": "Asti",
          "sigla": "AT",
          "lat": "44.8259707",
          "lon": "8.1985387"
        },
        {
          "nome": "Avellino",
          "sigla": "AV",
          "lat": "40.9965515",
          "lon": "15.0658882"
        },
        {
          "nome": "Bari",
          "sigla": "BA",
          "lat": "40.9607207",
          "lon": "16.8011077"
        },
        {
          "nome": "Barletta-Andria-Trani",
          "sigla": "BT",
          "lat": "41.169715",
          "lon": "16.2062505"
        },
        {
          "nome": "Belluno",
          "sigla": "BL",
          "lat": "46.2805166",
          "lon": "12.2079053"
        },
        {
          "nome": "Benevento",
          "sigla": "BN",
          "lat": "41.2307152",
          "lon": "14.7505792"
        },
        {
          "nome": "Bergamo",
          "sigla": "BG",
          "lat": "45.7567848",
          "lon": "9.8540451"
        },
        {
          "nome": "Biella",
          "sigla": "BI",
          "lat": "45.5668706",
          "lon": "8.1047018"
        },
        {
          "nome": "Bologna",
          "sigla": "BO",
          "lat": "44.4334878",
          "lon": "11.3228846"
        },
        {
          "nome": "Bolzano",
          "sigla": "BZ",
          "lat": "46.655781",
          "lon": "11.4296877"
        },
        {
          "nome": "Brescia",
          "sigla": "BS",
          "lat": "45.779357",
          "lon": "10.3311923"
        },
        {
          "nome": "Brindisi",
          "sigla": "BR",
          "lat": "40.6359085",
          "lon": "17.6963171"
        },
        {
          "nome": "Cagliari",
          "sigla": "CA",
          "lat": "39.3917999",
          "lon": "9.1283849"
        },
        {
          "nome": "Caltanissetta",
          "sigla": "CL",
          "lat": "37.3734855",
          "lon": "14.0633714"
        },
        {
          "nome": "Campobasso",
          "sigla": "CB",
          "lat": "41.7169231",
          "lon": "14.7696277"
        },
        {
          "nome": "Carbonia-Iglesias",
          "sigla": "CI",
          "lat": "39.2087789",
          "lon": "8.5363886"
        },
        {
          "nome": "Caserta",
          "sigla": "CE",
          "lat": "41.2031822",
          "lon": "14.1483726"
        },
        {
          "nome": "Catania",
          "sigla": "CT",
          "lat": "37.5055795",
          "lon": "14.80492"
        },
        {
          "nome": "Catanzaro",
          "sigla": "CZ",
          "lat": "38.8276829",
          "lon": "16.5081697"
        },
        {
          "nome": "Chieti",
          "sigla": "CH",
          "lat": "42.1022642",
          "lon": "14.4293375"
        },
        {
          "nome": "Como",
          "sigla": "CO",
          "lat": "45.9396464",
          "lon": "9.1671673"
        },
        {
          "nome": "Cosenza",
          "sigla": "CS",
          "lat": "39.596316",
          "lon": "16.3898635"
        },
        {
          "nome": "Cremona",
          "sigla": "CR",
          "lat": "45.2208198",
          "lon": "10.0249756"
        },
        {
          "nome": "Crotone",
          "sigla": "KR",
          "lat": "39.1874931",
          "lon": "16.9099181"
        },
        {
          "nome": "Cuneo",
          "sigla": "CN",
          "lat": "44.4583405",
          "lon": "7.5610865"
        },
        {
          "nome": "Enna",
          "sigla": "EN",
          "lat": "37.5854739",
          "lon": "14.4423157"
        },
        {
          "nome": "Fermo",
          "sigla": "FM",
          "lat": "43.0924073",
          "lon": "13.5327768"
        },
        {
          "nome": "Ferrara",
          "sigla": "FE",
          "lat": "44.7662393",
          "lon": "11.8164482"
        },
        {
          "nome": "Firenze",
          "sigla": "FI",
          "lat": "43.8457587",
          "lon": "11.2320401"
        },
        {
          "nome": "Foggia",
          "sigla": "FG",
          "lat": "41.5030182",
          "lon": "15.567753"
        },
        {
          "nome": "Forli'-Cesena",
          "sigla": "FC",
          "lat": "44.0356581",
          "lon": "12.0514851"
        },
        {
          "nome": "Frosinone",
          "sigla": "FR",
          "lat": "41.6282459",
          "lon": "13.5097599"
        },
        {
          "nome": "Genova",
          "sigla": "GE",
          "lat": "44.4466289",
          "lon": "9.0732185"
        },
        {
          "nome": "Gorizia",
          "sigla": "GO",
          "lat": "45.8630685",
          "lon": "13.4402319"
        },
        {
          "nome": "Grosseto",
          "sigla": "GR",
          "lat": "42.7137813",
          "lon": "11.2626425"
        },
        {
          "nome": "Imperia",
          "sigla": "IM",
          "lat": "43.9582855",
          "lon": "7.8150933"
        },
        {
          "nome": "Isernia",
          "sigla": "IS",
          "lat": "41.6486077",
          "lon": "14.2316331"
        },
        {
          "nome": "L'Aquila",
          "sigla": "AQ",
          "lat": "42.1366831",
          "lon": "13.6241138"
        },
        {
          "nome": "La Spezia",
          "sigla": "SP",
          "lat": "44.2315781",
          "lon": "9.7683944"
        },
        {
          "nome": "Latina",
          "sigla": "LT",
          "lat": "41.4593992",
          "lon": "13.2124853"
        },
        {
          "nome": "Lecce",
          "sigla": "LE",
          "lat": "40.1526131",
          "lon": "18.1414452"
        },
        {
          "nome": "Lecco",
          "sigla": "LC",
          "lat": "45.9009798",
          "lon": "9.3921446"
        },
        {
          "nome": "Livorno",
          "sigla": "LI",
          "lat": "43.1009891",
          "lon": "10.4209425"
        },
        {
          "nome": "Lodi",
          "sigla": "LO",
          "lat": "45.2613658",
          "lon": "9.6056706"
        },
        {
          "nome": "Lucca",
          "sigla": "LU",
          "lat": "44.0175407",
          "lon": "10.4409292"
        },
        {
          "nome": "Macerata",
          "sigla": "MC",
          "lat": "43.1530338",
          "lon": "13.2863374"
        },
        {
          "nome": "Mantova",
          "sigla": "MN",
          "lat": "45.1682052",
          "lon": "10.8684989"
        },
        {
          "nome": "Massa e Carrara",
          "sigla": "MS",
          "lat": "44.2240763",
          "lon": "9.9711562"
        },
        {
          "nome": "Matera",
          "sigla": "MT",
          "lat": "40.446842",
          "lon": "16.404153"
        },
        {
          "nome": "Medio Campidano",
          "sigla": "VS",
          "lat": "39.5789785",
          "lon": "8.7264736"
        },
        {
          "nome": "Messina",
          "sigla": "ME",
          "lat": "38.2214213",
          "lon": "14.9180577"
        },
        {
          "nome": "Milano",
          "sigla": "MI",
          "lat": "45.4186551",
          "lon": "9.2702932"
        },
        {
          "nome": "Modena",
          "sigla": "MO",
          "lat": "44.5388161",
          "lon": "10.9193739"
        },
        {
          "nome": "Monza e della Brianza",
          "sigla": "MB",
          "lat": "45.6396897",
          "lon": "9.2735981"
        },
        {
          "nome": "Napoli",
          "sigla": "NA",
          "lat": "40.777896",
          "lon": "14.260641"
        },
        {
          "nome": "Novara",
          "sigla": "NO",
          "lat": "45.5841952",
          "lon": "8.5767456"
        },
        {
          "nome": "Nuoro",
          "sigla": "NU",
          "lat": "40.2658859",
          "lon": "9.2191068"
        },
        {
          "nome": "Ogliastra",
          "sigla": "OG",
          "lat": "39.8871033",
          "lon": "9.5042998"
        },
        {
          "nome": "Olbia-Tempio",
          "sigla": "OT",
          "lat": "40.9195328",
          "lon": "9.2907697"
        },
        {
          "nome": "Oristano",
          "sigla": "OR",
          "lat": "40.0266195",
          "lon": "8.7239707"
        },
        {
          "nome": "Padova",
          "sigla": "PD",
          "lat": "45.3912715",
          "lon": "11.7984701"
        },
        {
          "nome": "Palermo",
          "sigla": "PA",
          "lat": "37.8819513",
          "lon": "13.6117774"
        },
        {
          "nome": "Parma",
          "sigla": "PR",
          "lat": "44.6952622",
          "lon": "9.9712667"
        },
        {
          "nome": "Pavia",
          "sigla": "PV",
          "lat": "45.0367442",
          "lon": "9.0246235"
        },
        {
          "nome": "Perugia",
          "sigla": "PG",
          "lat": "43.1070824",
          "lon": "12.5882782"
        },
        {
          "nome": "Pesaro e Urbino",
          "sigla": "PS",
          "lat": "43.6929253",
          "lon": "12.6789853"
        },
        {
          "nome": "Pescara",
          "sigla": "PE",
          "lat": "42.3088007",
          "lon": "14.0098035"
        },
        {
          "nome": "Piacenza",
          "sigla": "PC",
          "lat": "44.8474856",
          "lon": "9.641095"
        },
        {
          "nome": "Pisa",
          "sigla": "PI",
          "lat": "43.4717373",
          "lon": "10.6359088"
        },
        {
          "nome": "Pistoia",
          "sigla": "PT",
          "lat": "43.9744469",
          "lon": "10.8457988"
        },
        {
          "nome": "Pordenone",
          "sigla": "PN",
          "lat": "46.1015106",
          "lon": "12.655757"
        },
        {
          "nome": "Potenza",
          "sigla": "PZ",
          "lat": "40.5173642",
          "lon": "15.867066"
        },
        {
          "nome": "Prato",
          "sigla": "PO",
          "lat": "43.9353946",
          "lon": "11.0884846"
        },
        {
          "nome": "Ragusa",
          "sigla": "RG",
          "lat": "36.9128578",
          "lon": "14.6691211"
        },
        {
          "nome": "Ravenna",
          "sigla": "RA",
          "lat": "44.364118",
          "lon": "11.9542405"
        },
        {
          "nome": "Reggio Calabria",
          "sigla": "RC",
          "lat": "38.2448077",
          "lon": "16.1062626"
        },
        {
          "nome": "Reggio Emilia",
          "sigla": "RE",
          "lat": "44.6090308",
          "lon": "10.5200352"
        },
        {
          "nome": "Rieti",
          "sigla": "RI",
          "lat": "42.4151603",
          "lon": "12.9230546"
        },
        {
          "nome": "Rimini",
          "sigla": "RN",
          "lat": "43.9473278",
          "lon": "12.4259133"
        },
        {
          "nome": "Roma",
          "sigla": "RM",
          "lat": "41.8522007",
          "lon": "12.5149797"
        },
        {
          "nome": "Rovigo",
          "sigla": "RO",
          "lat": "44.977877",
          "lon": "11.8627089"
        },
        {
          "nome": "Salerno",
          "sigla": "SA",
          "lat": "40.4196731",
          "lon": "15.1175625"
        },
        {
          "nome": "Sassari",
          "sigla": "SS",
          "lat": "40.7086925",
          "lon": "8.7078525"
        },
        {
          "nome": "Savona",
          "sigla": "SV",
          "lat": "44.2338544",
          "lon": "8.3241877"
        },
        {
          "nome": "Siena",
          "sigla": "SI",
          "lat": "43.1671126",
          "lon": "11.445388"
        },
        {
          "nome": "Siracusa",
          "sigla": "SR",
          "lat": "37.0284583",
          "lon": "15.0546602"
        },
        {
          "nome": "Sondrio",
          "sigla": "SO",
          "lat": "46.3231586",
          "lon": "9.9394504"
        },
        {
          "nome": "Taranto",
          "sigla": "TA",
          "lat": "40.5490147",
          "lon": "17.2483366"
        },
        {
          "nome": "Teramo",
          "sigla": "TE",
          "lat": "42.6576175",
          "lon": "13.7460756"
        },
        {
          "nome": "Terni",
          "sigla": "TR",
          "lat": "42.6537891",
          "lon": "12.3941103"
        },
        {
          "nome": "Torino",
          "sigla": "TO",
          "lat": "45.1580221",
          "lon": "7.3892442"
        },
        {
          "nome": "Trapani",
          "sigla": "TP",
          "lat": "37.8745989",
          "lon": "12.6855871"
        },
        {
          "nome": "Trento",
          "sigla": "TN",
          "lat": "46.1029171",
          "lon": "11.2074329"
        },
        {
          "nome": "Treviso",
          "sigla": "TV",
          "lat": "45.8065277",
          "lon": "12.2138719"
        },
        {
          "nome": "Trieste",
          "sigla": "TS",
          "lat": "45.6944533",
          "lon": "13.7474043"
        },
        {
          "nome": "Udine",
          "sigla": "UD",
          "lat": "46.1458738",
          "lon": "13.1049033"
        },
        {
          "nome": "Varese",
          "sigla": "VA",
          "lat": "45.8315499",
          "lon": "8.8146698"
        },
        {
          "nome": "Venezia",
          "sigla": "VE",
          "lat": "45.455032",
          "lon": "12.531169"
        },
        {
          "nome": "Verbano-Cusio-Ossola",
          "sigla": "VB",
          "lat": "46.1156742",
          "lon": "8.2897533"
        },
        {
          "nome": "Vercelli",
          "sigla": "VC",
          "lat": "45.5549814",
          "lon": "8.2213044"
        },
        {
          "nome": "Verona",
          "sigla": "VR",
          "lat": "45.4399602",
          "lon": "11.0570454"
        },
        {
          "nome": "Vibo Valentia",
          "sigla": "VV",
          "lat": "38.6266482",
          "lon": "16.1305381"
        },
        {
          "nome": "Vicenza",
          "sigla": "VI",
          "lat": "45.6343168",
          "lon": "11.4860261"
        },
        {
          "nome": "Viterbo",
          "sigla": "VT",
          "lat": "42.4922151",
          "lon": "11.9844806"
        }
      ]
    }
  ]
}